[
  {
    "id": "asa-sul",
    "name": "Asa Sul",
    "zone": "Plano Piloto",
    "delivery_time": "Entrega D+1 (Amanhã)",
    "delivery_fee": 0.00,
    "persona": "Casal Gourmet",
    "geo": {
      "latitude": -15.8130,
      "longitude": -47.9150
    }
  },
  {
    "id": "asa-norte",
    "name": "Asa Norte",
    "zone": "Plano Piloto",
    "delivery_time": "Entrega D+1 (Amanhã)",
    "delivery_fee": 0.00,
    "persona": "Solteiro Prático",
    "geo": {
      "latitude": -15.7634,
      "longitude": -47.8706
    }
  },
  {
    "id": "lago-sul",
    "name": "Lago Sul",
    "zone": "Zona Nobre",
    "delivery_time": "Entrega D+1 (Amanhã)",
    "delivery_fee": 0.00,
    "persona": "Família Premium",
    "geo": {
      "latitude": -15.8366,
      "longitude": -47.8879
    }
  },
  {
    "id": "lago-norte",
    "name": "Lago Norte",
    "zone": "Zona Nobre",
    "delivery_time": "Entrega D+1 (Amanhã)",
    "delivery_fee": 0.00,
    "persona": "Vida Funcional",
    "geo": {
      "latitude": -15.7368,
      "longitude": -47.8637"
    }
  },
  {
    "id": "sudoeste",
    "name": "Sudoeste",
    "zone": "Plano Piloto",
    "delivery_time": "Entrega D+1 (Amanhã)",
    "delivery_fee": 0.00,
    "persona": "Vida Funcional",
    "geo": {
      "latitude": -15.7956,
      "longitude": -47.9247
    }
  },
  {
    "id": "noroeste",
    "name": "Noroeste",
    "zone": "Expansão Nobre",
    "delivery_time": "Entrega D+1 (Amanhã)",
    "delivery_fee": 0.00,
    "persona": "Bairro Novo/Sustentável",
    "geo": {
      "latitude": -15.7533,
      "longitude": -47.9144
    }
  },
  {
    "id": "aguas-claras",
    "name": "Águas Claras",
    "zone": "Satélite Vertical",
    "delivery_time": "Entrega D+1 (Amanhã)",
    "delivery_fee": 0.00,
    "persona": "Família Dinâmica",
    "geo": {
      "latitude": -15.8363,
      "longitude": -48.0193
    }
  },
  {
    "id": "park-sul",
    "name": "Park Sul",
    "zone": "Zona Nobre",
    "delivery_time": "Entrega D+1 (Amanhã)",
    "delivery_fee": 0.00,
    "persona": "Viajante Airbnb",
    "geo": {
      "latitude": -15.8260,
      "longitude": -47.9540
    }
  },
  {
    "id": "esplanada",
    "name": "Esplanada dos Ministérios",
    "zone": "Governo",
    "delivery_time": "Entrega D+1 (Amanhã)",
    "delivery_fee": 0.00,
    "persona": "Executivo/Governo",
    "geo": {
      "latitude": -15.7975,
      "longitude": -47.8645
    }
  },
  {
    "id": "taguatinga-sul",
    "name": "Taguatinga Sul",
    "zone": "Satélite",
    "delivery_time": "Entrega D+1 (Amanhã)",
    "delivery_fee": 0.00,
    "persona": "Família Tradicional",
    "geo": {
      "latitude": -15.8330,
      "longitude": -48.0560"
    }
  },
  {
    "id": "taguatinga-norte",
    "name": "Taguatinga Norte",
    "zone": "Satélite",
    "delivery_time": "Entrega D+1 (Amanhã)",
    "delivery_fee": 0.00,
    "persona": "Comércio Local",
    "geo": {
      "latitude": -15.8150,
      "longitude": -48.0650"
    }
  },
  {
    "id": "guara",
    "name": "Guará I e II",
    "zone": "Intermediária",
    "delivery_time": "Entrega D+1 (Amanhã)",
    "delivery_fee": 0.00,
    "persona": "Trilheiro/Natureza",
    "geo": {
      "latitude": -15.8267,
      "longitude": -47.9800"
    }
  },
  {
    "id": "grande-colorado",
    "name": "Grande Colorado",
    "zone": "Condomínios",
    "delivery_time": "Entrega D+1 (Amanhã)",
    "delivery_fee": 0.00,
    "persona": "Refúgio/Paz",
    "geo": {
      "latitude": -15.6900,
      "longitude": -47.8500"
    }
  },
  {
    "id": "sia",
    "name": "SIA (Setor Indústria)",
    "zone": "Comercial",
    "delivery_time": "Entrega D+1 (Amanhã)",
    "delivery_fee": 0.00,
    "persona": "Trabalho/Indústria",
    "geo": {
      "latitude": -15.8000,
      "longitude": -47.9500"
    }
  },
  {
    "id": "riacho-fundo",
    "name": "Riacho Fundo I",
    "zone": "Satélite",
    "delivery_time": "Entrega D+1 (Amanhã)",
    "delivery_fee": 0.00,
    "persona": "Conforto Familiar",
    "geo": {
      "latitude": -15.8800,
      "longitude": -48.0200"
    }
  },
  {
    "id": "jardim-botanico",
    "name": "Jardim Botânico",
    "zone": "Condomínios",
    "delivery_time": "Entrega D+1 (Amanhã)",
    "delivery_fee": 0.00,
    "persona": "Saúde/Cerrado",
    "geo": {
      "latitude": -15.8600,
      "longitude": -47.8300"
    }
  },
  {
    "id": "vicente-pires",
    "name": "Vicente Pires",
    "zone": "Satélite",
    "delivery_time": "Entrega D+1 (Amanhã)",
    "delivery_fee": 0.00,
    "persona": "Local Hero",
    "geo": {
      "latitude": -15.8080,
      "longitude": -48.0310"
    }
  },
  {
    "id": "plano-piloto-centro",
    "name": "Plano Piloto (Centro)",
    "zone": "Central",
    "delivery_time": "Entrega D+1 (Amanhã)",
    "delivery_fee": 0.00,
    "persona": "Vida Urbana",
    "geo": {
      "latitude": -15.7801,
      "longitude": -47.9292"
    }
  }
]
